[
  {
    "id": 1,
    "name": "Atelier September",
    "address": "Gothersgade 30",
    "city": "1123 K√∏benhavn K",
    "website": "https://www.cafeatelierseptember.com/",
    "phone": "26 29 57 53",
    "latitude": 55.6821674,
    "longitude": 12.5829888,
    "lastvisit": "2021-12-07T00:00:00.000Z",
    "options": "",
    "image": "atelierseptember.webp",
    "michelin": 0,
    "review": null,
    "atmosphere": 4,
    "taste": 5,
    "service": 4,
    "instagram": "https://www.instagram.com/atelierseptember/"
  },
  {
    "id": 2,
    "name": "Granola",
    "address": "V√¶rnedamsvej 5",
    "city": "1819 Frederiksberg",
    "website": "https://www.granola.dk/",
    "phone": "31 31 15 36",
    "latitude": 55.6734398,
    "longitude": 12.5498307,
    "lastvisit": "2020-11-02T00:00:00.000Z",
    "options": "",
    "image": "granola.webp",
    "michelin": 0,
    "review": "Lad din l√∏rdag morgen starte paÃä @granolacafe - deres omelet er virkelig god og personalet er üëåüèª",
    "atmosphere": 4,
    "taste": 4,
    "service": 4,
    "instagram": "https://www.instagram.com/granolacafe/"
  },
  {
    "id": 4,
    "name": "Mad & Kaffe Vesterbro",
    "address": "S√∏nder Blvd. 68",
    "city": "1720 K√∏benhavn V",
    "website": "https://www.madogkaffe.dk/",
    "phone": "31 35 08 80",
    "latitude": 55.665943,
    "longitude": 12.550398,
    "lastvisit": "2019-01-01T00:00:00.000Z",
    "options": "",
    "image": "madogkaffe.webp",
    "michelin": 0,
    "review": null,
    "atmosphere": 0,
    "taste": 0,
    "service": 0,
    "instagram": "https://www.instagram.com/madogkaffe/"
  },
  {
    "id": 5,
    "name": "Mad & Kaffe Amagerbro",
    "address": "Tyrolsgade 6",
    "city": "2300 K√∏benhavn S",
    "website": "https://www.madogkaffe.dk/",
    "phone": "31 35 08 80",
    "latitude": 55.6590954,
    "longitude": 12.6084129,
    "lastvisit": "2019-01-01T00:00:00.000Z",
    "options": "",
    "image": "madogkaffe.webp",
    "michelin": 0,
    "review": null,
    "atmosphere": 0,
    "taste": 0,
    "service": 0,
    "instagram": "https://www.instagram.com/madogkaffe/"
  },
  {
    "id": 6,
    "name": "Wulff & Konstali",
    "address": "Lergravsvej 57",
    "city": "2300 K√∏benhavn S",
    "website": "https://www.wogk.dk/",
    "phone": "32 54 81 81",
    "latitude": 55.6644857,
    "longitude": 12.6255127,
    "lastvisit": "2019-01-01T00:00:00.000Z",
    "options": "",
    "image": "wulffogkonstali.webp",
    "michelin": 0,
    "review": null,
    "atmosphere": 0,
    "taste": 0,
    "service": 0,
    "instagram": "https://www.instagram.com/wulffogkonstali/"
  },
  {
    "id": 8,
    "name": "Sidecar",
    "address": "Skyttegade 5",
    "city": "2200 K√∏benhavn N",
    "website": "https://www.sidecarnoerrebro.dk/",
    "phone": "20 99 97 27",
    "latitude": 55.6869259,
    "longitude": 12.549621,
    "lastvisit": "2019-01-01T00:00:00.000Z",
    "options": "",
    "image": "sidecar.webp",
    "michelin": 0,
    "review": null,
    "atmosphere": 0,
    "taste": 0,
    "service": 0,
    "instagram": "https://www.instagram.com/sidecar_noerrebro/"
  },
  {
    "id": 9,
    "name": "Il Buco",
    "address": "Njalsgade 19C",
    "city": "2300 K√∏benhavn",
    "website": "https://www.ilbuco.dk/",
    "phone": "26 74 65 44",
    "latitude": 55.666372,
    "longitude": 12.580091,
    "lastvisit": "2020-06-19T00:00:00.000Z",
    "options": "Coffee, Bakery",
    "image": "ilbuco.webp",
    "michelin": 0,
    "review": "Den perfekte start p√• dagen‚òïÔ∏è @ilbucocph har byen bedste croissanter , solskin og sk√∏n serviceü•ê‚òÄÔ∏è",
    "atmosphere": 5,
    "taste": 5,
    "service": 5,
    "instagram": "https://www.instagram.com/ilbucocph/"
  },
  {
    "id": 10,
    "name": "Apollo Bar",
    "address": "Nyhavn 2",
    "city": "1051 K√∏benhavn",
    "website": "https://apollobar.dk/",
    "phone": "27 28 55 18",
    "latitude": 55.680274963378906,
    "longitude": 12.588044166564941,
    "lastvisit": "2021-06-26T00:00:00.000Z",
    "options": "",
    "image": "apollobar.webp",
    "michelin": 0,
    "review": "Maden b√•de s√• og smagte fantastisk, stemningen i topüç∑üíÉüèº Men servicen bar pr√¶g af en travl aften.. Trods det - Nyd lige en sommeraften p√• @apollo_bar ‚òÄÔ∏è",
    "atmosphere": 5,
    "taste": 4,
    "service": 2,
    "instagram": "https://www.instagram.com/apollo_bar/"
  },
  {
    "id": 11,
    "name": "Lille Bakery",
    "address": "Refshalevej 213A",
    "city": "1432 K√∏benhavn",
    "website": "https://lillebakery.com/day-food/",
    "phone": "N/A",
    "latitude": 55.688819885253906,
    "longitude": 12.611257553100586,
    "lastvisit": "2022-06-03T00:00:00.000Z",
    "options": "Coffee, Bakery",
    "image": "lillebakery.webp",
    "michelin": 0,
    "review": null,
    "atmosphere": 0,
    "taste": 0,
    "service": 0,
    "instagram": "https://www.instagram.com/lillebakery/"
  },
  {
    "id": 12,
    "name": "Juno the bakery",
    "address": "√Örhusgade 48",
    "city": "2100 K√∏benhavn",
    "website": "https://www.instagram.com/juno_the_bakery/",
    "phone": null,
    "latitude": 55.70649719238281,
    "longitude": 12.583722114562988,
    "lastvisit": "2019-01-01T00:00:00.000Z",
    "options": "Coffee, Bakery",
    "image": "junothebakery.webp",
    "michelin": 0,
    "review": null,
    "atmosphere": 0,
    "taste": 0,
    "service": 0,
    "instagram": "https://www.instagram.com/juno_the_bakery/"
  },
  {
    "id": 13,
    "name": "Den Bette",
    "address": "Kirkeg√•rdsvej 27",
    "city": "2300 K√∏benhavn",
    "website": "https://www.instagram.com/cafe_bette/",
    "phone": "53 76 75 11",
    "latitude": 55.65730285644531,
    "longitude": 12.61220645904541,
    "lastvisit": "2019-01-01T00:00:00.000Z",
    "options": "Coffee, Bakery",
    "image": "denbette.webp",
    "michelin": 0,
    "review": null,
    "atmosphere": 0,
    "taste": 0,
    "service": 0,
    "instagram": "https://www.instagram.com/cafe_bette/"
  },
  {
    "id": 14,
    "name": "Prolog",
    "address": "H√∏kerboderne 16",
    "city": "1712 K√∏benhavn",
    "website": "https://www.prologcoffee.com/",
    "phone": "28 87 48 46",
    "latitude": 55.6682749,
    "longitude": 12.557548,
    "lastvisit": null,
    "options": "Coffee",
    "image": "coffee.webp",
    "michelin": 0,
    "review": null,
    "atmosphere": 0,
    "taste": 0,
    "service": 0,
    "instagram": "https://www.instagram.com/prologcoffee.cph/"
  },
  {
    "id": 15,
    "name": "Jato Bakery",
    "address": "Amagerbrogade 232A",
    "city": "2300 K√∏benhavn",
    "website": "https://www.instagram.com/jato_bakery/",
    "phone": null,
    "latitude": 55.649497985839844,
    "longitude": 12.612916946411133,
    "lastvisit": null,
    "options": "Coffee",
    "image": "coffee.webp",
    "michelin": 0,
    "review": null,
    "atmosphere": 0,
    "taste": 0,
    "service": 0,
    "instagram": "https://www.instagram.com/jato_bakery/"
  },
  {
    "id": 16,
    "name": "Arrebro",
    "address": "Midg√•rdsgade 1",
    "city": "2200 K√∏benhavn",
    "website": "https://www.instagram.com/arrebonorrebro/",
    "phone": null,
    "latitude": 55.70138168334961,
    "longitude": 12.542290687561035,
    "lastvisit": null,
    "options": "Coffee",
    "image": "coffee.webp",
    "michelin": 0,
    "review": null,
    "atmosphere": 0,
    "taste": 0,
    "service": 0,
    "instagram": "https://www.instagram.com/arrebonorrebro/"
  },
  {
    "id": 17,
    "name": "Democratic Coffee",
    "address": "Krystalgade 15",
    "city": "1172 K√∏benhavn K",
    "website": "https://www.instagram.com/democraticcoffeebar/",
    "phone": null,
    "latitude": 55.680876,
    "longitude": 12.573653,
    "lastvisit": null,
    "options": "Coffee",
    "image": "coffee.webp",
    "michelin": 0,
    "review": null,
    "atmosphere": 0,
    "taste": 0,
    "service": 0,
    "instagram": "https://www.instagram.com/democraticcoffeebar/"
  },
  {
    "id": 18,
    "name": "Kasada",
    "address": "Strandlodsvej 11e",
    "city": "2300 K√∏benhavn S",
    "website": "https://kasada.dk/en/",
    "phone": null,
    "latitude": 55.662437438964844,
    "longitude": 12.623929023742676,
    "lastvisit": null,
    "options": "Bakery",
    "image": "coffee.webp",
    "michelin": 0,
    "review": null,
    "atmosphere": 0,
    "taste": 0,
    "service": 0,
    "instagram": "https://www.instagram.com/kasada.cph/"
  },
  {
    "id": 19,
    "name": "Yellowbird Coffee",
    "address": "Amager Strandvej 108",
    "city": "2300 K√∏benhavn",
    "website": "https://yellowbirdcoffee.dk/",
    "phone": null,
    "latitude": 55.661075,
    "longitude": 12.631956,
    "lastvisit": null,
    "options": "Coffee",
    "image": "coffee.webp",
    "michelin": 0,
    "review": null,
    "atmosphere": 0,
    "taste": 0,
    "service": 0,
    "instagram": "https://www.instagram.com/yellowbirdcoffeecph/"
  },
  {
    "id": 20,
    "name": "Original Coffee - Bredgade",
    "address": "Bredgade 36",
    "city": "1260 K√∏benhavn K",
    "website": "https://originalcoffee.dk/en",
    "phone": null,
    "latitude": 55.683785,
    "longitude": 12.590016,
    "lastvisit": null,
    "options": "Coffee",
    "image": "coffee.webp",
    "michelin": 0,
    "review": null,
    "atmosphere": 0,
    "taste": 0,
    "service": 0,
    "instagram": "https://www.instagram.com/originalcoffee/"
  },
  {
    "id": 21,
    "name": "Gabriel Jensens",
    "address": "Batterivej 15",
    "city": "2791 Drag√∏r",
    "website": "https://www.instagram.com/gabriel.jensens/",
    "phone": null,
    "latitude": 55.587705,
    "longitude": 12.672721,
    "lastvisit": null,
    "options": "Bakery",
    "image": "coffee.webp",
    "michelin": 0,
    "review": null,
    "atmosphere": 0,
    "taste": 0,
    "service": 0,
    "instagram": "https://www.instagram.com/gabriel.jensens/"
  },
  {
    "id": 22,
    "name": "Bageriet B",
    "address": "Haraldsgade 5",
    "city": "2200 K√∏benhavn N",
    "website": "https://bagerietb.dk/",
    "phone": null,
    "latitude": 55.703592,
    "longitude": 12.548576,
    "lastvisit": null,
    "options": "Bakery",
    "image": "coffee.webp",
    "michelin": 0,
    "review": null,
    "atmosphere": 0,
    "taste": 0,
    "service": 0,
    "instagram": "https://www.instagram.com/bageriet_b/"
  },
  {
    "id": 23,
    "name": "Bageriet Benji",
    "address": "F√¶lledvej 23",
    "city": "2200 K√∏benhavn N",
    "website": "https://www.instagram.com/bageriet_benji/",
    "phone": null,
    "latitude": 55.689984,
    "longitude": 12.560326,
    "lastvisit": null,
    "options": "Bakery",
    "image": "coffee.webp",
    "michelin": 0,
    "review": null,
    "atmosphere": 0,
    "taste": 0,
    "service": 0,
    "instagram": "https://www.instagram.com/bageriet_benji/"
  },
  {
    "id": 24,
    "name": "Tekno Eatery",
    "address": "Rentemestervej 62",
    "city": "2400 K√∏benhavn",
    "website": "https://www.teknoeatery.dk/",
    "phone": null,
    "latitude": 55.70688247680664,
    "longitude": 12.527546882629395,
    "lastvisit": null,
    "options": "Bakery",
    "image": "coffee.webp",
    "michelin": 0,
    "review": null,
    "atmosphere": 0,
    "taste": 0,
    "service": 0,
    "instagram": "https://www.instagram.com/teknoeatery/?hl=en"
  },
  {
    "id": 25,
    "name": "Alice",
    "address": "Markmandsgade 1",
    "city": "2300 K√∏benhavn",
    "website": "https://www.instagram.com/alice.cph/",
    "phone": null,
    "latitude": 55.668423,
    "longitude": 12.597074,
    "lastvisit": null,
    "options": "Coffee, Bakery",
    "image": "coffee.webp",
    "michelin": 0,
    "review": null,
    "atmosphere": 0,
    "taste": 0,
    "service": 0,
    "instagram": "https://www.instagram.com/alice.cph/"
  },
  {
    "id": 26,
    "name": "Meyers Bageri - Amager",
    "address": "Amagerbrogade 48",
    "city": "2300 K√∏benhavn",
    "website": "https://meyers.dk/bageri/meyers-bagerier/",
    "phone": null,
    "latitude": 55.663099,
    "longitude": 12.601476,
    "lastvisit": null,
    "options": "Bakery",
    "image": "coffee.webp",
    "michelin": 0,
    "review": null,
    "atmosphere": 0,
    "taste": 0,
    "service": 0,
    "instagram": "https://www.instagram.com/meyersbageri/"
  },
  {
    "id": 27,
    "name": "Meyers Bageri - √òsterbro",
    "address": "Classensgade 33",
    "city": "2100 K√∏benhavn √ò",
    "website": "https://meyers.dk/bageri/meyers-bagerier/",
    "phone": null,
    "latitude": 55.697636,
    "longitude": 12.585123,
    "lastvisit": null,
    "options": "Bakery",
    "image": "coffee.webp",
    "michelin": 0,
    "review": null,
    "atmosphere": 0,
    "taste": 0,
    "service": 0,
    "instagram": "https://www.instagram.com/meyersbageri/"
  },
  {
    "id": 28,
    "name": "Meyers Bageri - N√∏rrebro",
    "address": "J√¶gersborggade 9",
    "city": "2300 K√∏benhavn N",
    "website": "https://meyers.dk/bageri/meyers-bagerier/",
    "phone": null,
    "latitude": 55.691858,
    "longitude": 12.544933,
    "lastvisit": null,
    "options": "Bakery",
    "image": "coffee.webp",
    "michelin": 0,
    "review": null,
    "atmosphere": 0,
    "taste": 0,
    "service": 0,
    "instagram": "https://www.instagram.com/meyersbageri/"
  },
  {
    "id": 29,
    "name": "Meyers Bageri - Frederiksberg",
    "address": "Gammel Kongevej 107",
    "city": "1850 Frederiksberg C",
    "website": "https://meyers.dk/bageri/meyers-bagerier/",
    "phone": null,
    "latitude": 55.675314,
    "longitude": 12.545761,
    "lastvisit": null,
    "options": "Bakery",
    "image": "coffee.webp",
    "michelin": 0,
    "review": null,
    "atmosphere": 0,
    "taste": 0,
    "service": 0,
    "instagram": "https://www.instagram.com/meyersbageri/"
  },
  {
    "id": 30,
    "name": "Hart Bageri - Carlsberg Byen",
    "address": "Franciska Clausens Plads 29",
    "city": "1799 K√∏benhavn V",
    "website": "https://hartbageri.com/",
    "phone": null,
    "latitude": 55.665907,
    "longitude": 12.53477,
    "lastvisit": null,
    "options": "Bakery",
    "image": "coffee.webp",
    "michelin": 0,
    "review": null,
    "atmosphere": 0,
    "taste": 0,
    "service": 0,
    "instagram": "https://www.instagram.com/hartbageri/"
  },
  {
    "id": 31,
    "name": "Hart Bageri - Frederiksberg",
    "address": "Gammel Kongevej 109",
    "city": "1799 K√∏benhavn V",
    "website": "https://hartbageri.com/",
    "phone": null,
    "latitude": 55.675383,
    "longitude": 12.545467,
    "lastvisit": null,
    "options": "Bakery",
    "image": "coffee.webp",
    "michelin": 0,
    "review": null,
    "atmosphere": 0,
    "taste": 0,
    "service": 0,
    "instagram": "https://www.instagram.com/hartbageri/"
  },
  {
    "id": 32,
    "name": "Hart Bageri - Holmen",
    "address": "Galionsvej 41",
    "city": "1437 K√∏benhavn K",
    "website": "https://hartbageri.com/",
    "phone": null,
    "latitude": 55.679627,
    "longitude": 12.601099,
    "lastvisit": null,
    "options": "Bakery",
    "image": "coffee.webp",
    "michelin": 0,
    "review": null,
    "atmosphere": 0,
    "taste": 0,
    "service": 0,
    "instagram": "https://www.instagram.com/hartbageri/"
  },
  {
    "id": 33,
    "name": "Hart Bageri - Islands Brygge",
    "address": "Islands Brygge 23",
    "city": "2300 K√∏benhavn S",
    "website": "https://hartbageri.com/",
    "phone": null,
    "latitude": 55.666822,
    "longitude": 12.577045,
    "lastvisit": null,
    "options": "Bakery",
    "image": "coffee.webp",
    "michelin": 0,
    "review": null,
    "atmosphere": 0,
    "taste": 0,
    "service": 0,
    "instagram": "https://www.instagram.com/hartbageri/"
  },
  {
    "id": 34,
    "name": "Hart Bageri - Istedgade",
    "address": "Istedgade 61",
    "city": "1716 K√∏benhavn V",
    "website": "https://hartbageri.com/",
    "phone": null,
    "latitude": 55.669069,
    "longitude": 12.553344,
    "lastvisit": null,
    "options": "Bakery",
    "image": "coffee.webp",
    "michelin": 0,
    "review": null,
    "atmosphere": 0,
    "taste": 0,
    "service": 0,
    "instagram": "https://www.instagram.com/hartbageri/"
  },
  {
    "id": 35,
    "name": "Hart Bageri - K√∏dbyen",
    "address": "H√∏kerboderne 17",
    "city": "1712 K√∏benhavn V",
    "website": "https://hartbageri.com/",
    "phone": null,
    "latitude": 55.668323,
    "longitude": 12.557971,
    "lastvisit": null,
    "options": "Bakery",
    "image": "coffee.webp",
    "michelin": 0,
    "review": null,
    "atmosphere": 0,
    "taste": 0,
    "service": 0,
    "instagram": "https://www.instagram.com/hartbageri/"
  },
  {
    "id": 36,
    "name": "Hart Bageri - Marmorkirken",
    "address": "Store Kongensgade 75",
    "city": "1264 K√∏benhavn K",
    "website": "https://hartbageri.com/",
    "phone": null,
    "latitude": 55.685202,
    "longitude": 12.588288,
    "lastvisit": null,
    "options": "Bakery",
    "image": "coffee.webp",
    "michelin": 0,
    "review": null,
    "atmosphere": 0,
    "taste": 0,
    "service": 0,
    "instagram": "https://www.instagram.com/hartbageri/"
  },
  {
    "id": 37,
    "name": "Hart Bageri - Refshalevej",
    "address": "Refshalevej 159A",
    "city": "1432 K√∏benhavn K",
    "website": "https://hartbageri.com/",
    "phone": null,
    "latitude": 55.69112,
    "longitude": 12.611593,
    "lastvisit": null,
    "options": "Bakery",
    "image": "coffee.webp",
    "michelin": 0,
    "review": null,
    "atmosphere": 0,
    "taste": 0,
    "service": 0,
    "instagram": "https://www.instagram.com/hartbageri/"
  },
  {
    "id": 38,
    "name": "Hart Bageri - Stefansgade",
    "address": "Julius Bloms Gade 32",
    "city": "2200 K√∏benhavn N",
    "website": "https://hartbageri.com/",
    "phone": null,
    "latitude": 55.695256,
    "longitude": 12.544046,
    "lastvisit": null,
    "options": "Bakery",
    "image": "coffee.webp",
    "michelin": 0,
    "review": null,
    "atmosphere": 0,
    "taste": 0,
    "service": 0,
    "instagram": "https://www.instagram.com/hartbageri/"
  },
  {
    "id": 39,
    "name": "Hart Bageri - √òsterbro",
    "address": "Victor Borges Plads 2",
    "city": "2100 K√∏benhavn √ò",
    "website": "https://hartbageri.com/",
    "phone": null,
    "latitude": 55.701738,
    "longitude": 12.581208,
    "lastvisit": null,
    "options": "Bakery",
    "image": "coffee.webp",
    "michelin": 0,
    "review": null,
    "atmosphere": 0,
    "taste": 0,
    "service": 0,
    "instagram": "https://www.instagram.com/hartbageri/"
  },
  {
    "id": 40,
    "name": "Original Coffee - Frederiksberg",
    "address": "Gammel Kongevej 173",
    "city": "1850 Frederiksberg",
    "website": "https://originalcoffee.dk/en",
    "phone": null,
    "latitude": 55.678001,
    "longitude": 12.534285,
    "lastvisit": null,
    "options": "Coffee",
    "image": "coffee.webp",
    "michelin": 0,
    "review": null,
    "atmosphere": 0,
    "taste": 0,
    "service": 0,
    "instagram": "https://www.instagram.com/originalcoffee/"
  },
  {
    "id": 41,
    "name": "Original Coffee - Hellerup",
    "address": "Strandvejen 149",
    "city": "2900 Hellerup",
    "website": "https://originalcoffee.dk/en",
    "phone": null,
    "latitude": 55.730412,
    "longitude": 12.576192,
    "lastvisit": null,
    "options": "Coffee",
    "image": "coffee.webp",
    "michelin": 0,
    "review": null,
    "atmosphere": 0,
    "taste": 0,
    "service": 0,
    "instagram": "https://www.instagram.com/originalcoffee/"
  },
  {
    "id": 42,
    "name": "Original Coffee - Illum 4th floor",
    "address": "Illum 4. sal √òstergade 52",
    "city": "1100 K√∏benhavn K",
    "website": "https://originalcoffee.dk/en",
    "phone": null,
    "latitude": 55.679268,
    "longitude": 12.58069,
    "lastvisit": null,
    "options": "Coffee",
    "image": "coffee.webp",
    "michelin": 0,
    "review": null,
    "atmosphere": 0,
    "taste": 0,
    "service": 0,
    "instagram": "https://www.instagram.com/originalcoffee/"
  },
  {
    "id": 43,
    "name": "Original Coffee - Illum Rooftop",
    "address": "√òstergade 52",
    "city": "1100 K√∏benhavn K",
    "website": "https://originalcoffee.dk/en",
    "phone": null,
    "latitude": 55.679268,
    "longitude": 12.58069,
    "lastvisit": null,
    "options": "Coffee",
    "image": "coffee.webp",
    "michelin": 0,
    "review": null,
    "atmosphere": 0,
    "taste": 0,
    "service": 0,
    "instagram": "https://www.instagram.com/originalcoffee/"
  },
  {
    "id": 44,
    "name": "Original Coffee - Istedgade",
    "address": "Istedgade 64",
    "city": "1650 K√∏benhavn V",
    "website": "https://originalcoffee.dk/en",
    "phone": null,
    "latitude": 55.669691,
    "longitude": 12.554575,
    "lastvisit": null,
    "options": "Coffee",
    "image": "coffee.webp",
    "michelin": 0,
    "review": null,
    "atmosphere": 0,
    "taste": 0,
    "service": 0,
    "instagram": "https://www.instagram.com/originalcoffee/"
  },
  {
    "id": 45,
    "name": "Original Coffee - Nordhavn",
    "address": "G√∂teborg Plads 6",
    "city": "2150 Nordhavn",
    "website": "https://originalcoffee.dk/en",
    "phone": null,
    "latitude": 55.706913,
    "longitude": 12.597758,
    "lastvisit": null,
    "options": "Coffee",
    "image": "coffee.webp",
    "michelin": 0,
    "review": null,
    "atmosphere": 0,
    "taste": 0,
    "service": 0,
    "instagram": "https://www.instagram.com/originalcoffee/"
  },
  {
    "id": 46,
    "name": "Original Coffee - N√∏rrebro",
    "address": "Sortedam Dossering 9",
    "city": "2200 K√∏benhavn N",
    "website": "https://originalcoffee.dk/en",
    "phone": null,
    "latitude": 55.688189,
    "longitude": 12.563424,
    "lastvisit": null,
    "options": "Coffee",
    "image": "coffee.webp",
    "michelin": 0,
    "review": null,
    "atmosphere": 0,
    "taste": 0,
    "service": 0,
    "instagram": "https://www.instagram.com/originalcoffee/"
  },
  {
    "id": 47,
    "name": "Original Coffee - OC Depot",
    "address": "Linn√©sgade 7",
    "city": "1362 K√∏benhavn K",
    "website": "https://originalcoffee.dk/en",
    "phone": null,
    "latitude": 55.6836922,
    "longitude": 12.5701903,
    "lastvisit": null,
    "options": "Coffee",
    "image": "coffee.webp",
    "michelin": 0,
    "review": null,
    "atmosphere": 0,
    "taste": 0,
    "service": 0,
    "instagram": "https://www.instagram.com/originalcoffee/"
  },
  {
    "id": 48,
    "name": "Original Coffee - Orientkaj",
    "address": "Alexandriagade 8",
    "city": "2150 Nordhavn",
    "website": "https://originalcoffee.dk/en",
    "phone": null,
    "latitude": 55.712202,
    "longitude": 12.594303,
    "lastvisit": null,
    "options": "Coffee",
    "image": "coffee.webp",
    "michelin": 0,
    "review": null,
    "atmosphere": 0,
    "taste": 0,
    "service": 0,
    "instagram": "https://www.instagram.com/originalcoffee/"
  },
  {
    "id": 49,
    "name": "Original Coffee - Store Kongensgade",
    "address": "Store Kongensgade 124",
    "city": "1264 K√∏benhavn K",
    "website": "https://originalcoffee.dk/en",
    "phone": null,
    "latitude": 55.688929,
    "longitude": 12.589738,
    "lastvisit": null,
    "options": "Coffee",
    "image": "coffee.webp",
    "michelin": 0,
    "review": null,
    "atmosphere": 0,
    "taste": 0,
    "service": 0,
    "instagram": "https://www.instagram.com/originalcoffee/"
  },
  {
    "id": 50,
    "name": "Original Coffee - Strandlodsvej",
    "address": "Strandlodsvej 13Z",
    "city": "2300 K√∏benhavn S",
    "website": "https://originalcoffee.dk/en",
    "phone": null,
    "latitude": 55.665252,
    "longitude": 12.621988,
    "lastvisit": null,
    "options": "Coffee",
    "image": "coffee.webp",
    "michelin": 0,
    "review": null,
    "atmosphere": 0,
    "taste": 0,
    "service": 0,
    "instagram": "https://www.instagram.com/originalcoffee/"
  },
  {
    "id": 51,
    "name": "Original Coffee - Stubkaj",
    "address": "Stubkaj 7F",
    "city": "2150 Nordhavn",
    "website": "https://originalcoffee.dk/en",
    "phone": null,
    "latitude": 55.709793,
    "longitude": 12.5948266,
    "lastvisit": null,
    "options": "Coffee",
    "image": "coffee.webp",
    "michelin": 0,
    "review": null,
    "atmosphere": 0,
    "taste": 0,
    "service": 0,
    "instagram": "https://www.instagram.com/originalcoffee/"
  },
  {
    "id": 52,
    "name": "Original Coffee - Trianglen",
    "address": "Nordre Frihavnsgade 2",
    "city": "2100 K√∏benhavn √ò",
    "website": "https://originalcoffee.dk/en",
    "phone": null,
    "latitude": 55.699727,
    "longitude": 12.578054,
    "lastvisit": null,
    "options": "Coffee",
    "image": "coffee.webp",
    "michelin": 0,
    "review": null,
    "atmosphere": 0,
    "taste": 0,
    "service": 0,
    "instagram": "https://www.instagram.com/originalcoffee/"
  },
  {
    "id": 53,
    "name": "Original Coffee - Jocks Passage",
    "address": "Jorcks Passage 1A",
    "city": "1162 K√∏benhavn K",
    "website": "https://originalcoffee.dk/en",
    "phone": null,
    "latitude": 55.678788,
    "longitude": 12.574431,
    "lastvisit": null,
    "options": "Coffee",
    "image": "coffee.webp",
    "michelin": 0,
    "review": null,
    "atmosphere": 0,
    "taste": 0,
    "service": 0,
    "instagram": "https://www.instagram.com/originalcoffee/"
  },
  {
    "id": 54,
    "name": "Original Coffee - Postbyen",
    "address": "Bernstorffsgade 36",
    "city": "1577 K√∏benhavn V",
    "website": "https://originalcoffee.dk/en",
    "phone": null,
    "latitude": 55.670369,
    "longitude": 12.56881,
    "lastvisit": null,
    "options": "Coffee",
    "image": "coffee.webp",
    "michelin": 0,
    "review": null,
    "atmosphere": 0,
    "taste": 0,
    "service": 0,
    "instagram": "https://www.instagram.com/originalcoffee/"
  },
  {
    "id": 55,
    "name": "Andersen Bakery - Islands Brygge",
    "address": "Thorshavnsgade 26",
    "city": "2300 K√∏benhavn S",
    "website": "https://andersen-bakery-eu.dk",
    "phone": null,
    "latitude": 55.667138,
    "longitude": 12.578329,
    "lastvisit": null,
    "options": "Bakery",
    "image": "coffee.webp",
    "michelin": 0,
    "review": null,
    "atmosphere": 0,
    "taste": 0,
    "service": 0,
    "instagram": "https://www.instagram.com/andersenbakery/?hl=en"
  },
  {
    "id": 56,
    "name": "Andersen Bakery - √òrestad",
    "address": "√òrestads Boulevard 49a",
    "city": "2300 K√∏benhavn S",
    "website": "https://andersen-bakery-eu.dk",
    "phone": null,
    "latitude": 55.636663,
    "longitude": 12.582893,
    "lastvisit": null,
    "options": "Bakery",
    "image": "coffee.webp",
    "michelin": 0,
    "review": null,
    "atmosphere": 0,
    "taste": 0,
    "service": 0,
    "instagram": "https://www.instagram.com/andersenbakery/?hl=en"
  },
  {
    "id": 57,
    "name": "Andersen & Maillard - N√∏rrebro",
    "address": "N√∏rrebrogade 62",
    "city": "2200 K√∏benhavn N",
    "website": "https://www.andersenmaillard.dk/",
    "phone": null,
    "latitude": 55.690417,
    "longitude": 12.555033,
    "lastvisit": null,
    "options": "Coffee",
    "image": "coffee.webp",
    "michelin": 0,
    "review": null,
    "atmosphere": 0,
    "taste": 0,
    "service": 0,
    "instagram": "https://www.instagram.com/andersenmaillard/?hl=en"
  },
  {
    "id": 58,
    "name": "Andersen & Maillard - Nordhavn",
    "address": "Antwerpengade 10",
    "city": "2150 Nordhavn",
    "website": "https://www.andersenmaillard.dk/",
    "phone": null,
    "latitude": 55.707244,
    "longitude": 12.596686,
    "lastvisit": null,
    "options": "Bakery",
    "image": "coffee.webp",
    "michelin": 0,
    "review": null,
    "atmosphere": 0,
    "taste": 0,
    "service": 0,
    "instagram": "https://www.instagram.com/andersenmaillard/?hl=en"
  },
  {
    "id": 59,
    "name": "Andersen & Maillard - Indre By",
    "address": "Ny √òstergade 15",
    "city": "1101 K√∏benhavn K",
    "website": "https://www.andersenmaillard.dk/",
    "phone": null,
    "latitude": 55.681527,
    "longitude": 12.582235,
    "lastvisit": null,
    "options": "Coffee, Bakery",
    "image": "coffee.webp",
    "michelin": 0,
    "review": null,
    "atmosphere": 0,
    "taste": 0,
    "service": 0,
    "instagram": "https://www.instagram.com/andersenmaillard/?hl=en"
  }
]
